time,x,y,z,yaw,pitch,roll,vx,vy,vz,ax,ay,az,wx,wy,wz,speed_kmh,throttle,steer,brake,gear,lane_id,road_id,is_junction,collision,collision_intensity
7.766030810773373,106.41629028320312,-12.711931228637695,0.0015125274658203125,-89.6092529296875,0.0,0.0,0.0,0.0,0.0,0.0,0.0,0.0,0.0,0.0,0.0,0.0,0.0,0.0,1.0,0,-1,0,False,0,0.0
7.816030811518431,106.41629028320312,-12.711931228637695,0.0014111327473074198,-89.6092529296875,0.0,0.0,8.183138611173035e-10,-3.5105884865771486e-10,-0.0017670630477368832,1.636627722234607e-08,-7.021176973154297e-09,-0.03534126281738281,5.028705913900922e-07,1.8512125734559959e-06,-2.859480985328844e-10,0.006361426971853587,0.75,-0.003664994379505515,0.0,0,-1,0,False,0,0.0
7.866030812263489,106.41629028320312,-12.711931228637695,0.0014040755340829492,-89.6092529296875,0.0,0.0,-8.967736775389312e-09,-3.709700879817035e-10,0.0006555462023243308,-1.9572101450648915e-07,-3.982247864797728e-10,0.048452187329530716,5.466695256473031e-07,-1.1452102626208216e-05,-1.709342334343944e-09,0.002359966328588787,0.75,-0.003674391657114029,0.0,0,-1,0,False,0,0.0
7.916030813008547,106.41629028320312,-12.711931228637695,0.0014670180389657617,-89.6092529296875,0.0,0.0,5.6687362359753024e-08,1.5274109088636578e-08,0.0015203189104795456,1.3131020750734024e-06,3.129015908598376e-07,0.01729545369744301,-2.0185238099657e-05,5.106133903609589e-05,2.736723292429133e-09,0.005473148081807192,0.75,-0.0036790904123336077,0.0,0,-1,0,False,0,0.0
7.966030813753605,106.41629028320312,-12.711931228637695,0.0015488051576539874,-89.6092529296875,0.0,0.0,-1.06398454491341e-08,3.1154476221040284e-10,0.001651344238780439,-1.346544195257593e-06,-2.9925129751973145e-07,0.002620506566017866,-4.769800625581411e-07,-6.730171207891544e-06,-1.1210052885957111e-09,0.005944839259733083,0.75,-0.0036837891675531864,0.0,0,-1,0,False,0,0.0
8.016030814498663,106.41629028320312,-12.711931228637695,0.0016267395112663507,-89.6092529296875,0.0,0.0,8.132786888381816e-09,2.886924588274553e-10,0.0014742660569027066,3.754526289867499e-07,-4.570460676589505e-10,-0.0035415636375546455,-3.216985362541891e-07,-5.456874077935936e-06,1.9597050648911818e-09,0.005307357804930602,0.75,-0.003688487922772765,0.0,0,-1,0,False,0,0.0
8.066030815243721,106.41629028320312,-12.711931228637695,0.0016923522343859076,-89.6092529296875,0.0,0.0,6.35028518658487e-09,1.8453105710136697e-10,0.0012003326555714011,-3.5650032259582076e-08,-2.083228034521767e-09,-0.00547866802662611,-1.911066931370442e-07,-4.645394710678374e-06,3.008794324799169e-09,0.0043211975601175675,0.75,-0.003693186677992344,0.0,0,-1,0,False,0,0.0
8.116030815988779,106.41629028320312,-12.711931228637695,0.0017440032679587603,-89.6092529296875,0.0,0.0,-8.854774691258172e-09,6.040006272911569e-10,0.0009251213050447404,-3.04101206438645e-07,8.389391403795798e-09,-0.005504227243363857,-9.063545007848006e-07,-2.1102175651321886e-06,-1.718879372170079e-09,0.0033304366983143313,0.75,-0.003697885200381279,0.0,0,-1,0,False,0,0.0
8.166030816733837,106.41629028320312,-12.711931228637695,0.0017829894786700606,-89.6092529296875,0.0,0.0,7.739645035975684e-10,6.64880595024897e-10,0.0006886291084811091,1.925747881159623e-07,1.2175993546748032e-09,-0.004729843698441982,-1.011682456919516e-06,1.2613450962817296e-05,-1.1254407128458155e-10,0.002479064790534714,0.75,-0.0037025839556008577,0.0,0,-1,0,False,0,0.0
8.216030817478895,106.41629028320312,-12.711931228637695,0.0017950439359992743,-89.6092529296875,0.0,0.0,-1.2122177039941562e-08,-2.1163766572573905e-10,0.00022384643671102822,-2.579228350896301e-07,-1.753036471541236e-08,-0.00929565355181694,3.8046508166189597e-07,-3.0922612495487556e-05,-9.434438785760335e-10,0.0008058471733416974,0.75,-0.0037072827108204365,0.0,0,-1,0,False,0,0.0
8.266030818223953,106.41629028320312,-12.711931228637695,0.0018091582460328937,-89.6092529296875,0.0,0.0,-2.691735945248297e-09,7.097082366236407e-10,0.00030451774364337325,1.8860882278204372e-07,1.842691688125342e-08,0.0016134261386469007,-9.913680969475536e-07,3.7425629670906346e-06,1.3323955272426247e-09,0.0010962638771619486,0.75,-0.0037119814660400152,0.0,0,-1,0,False,0,0.0
8.316030818969011,106.41634368896484,-12.72464656829834,0.001738700782880187,-89.61083221435547,0.014650754630565643,8.409253496211022e-05,0.0024271903093904257,-0.5712844133377075,0.0002953243092633784,0.048543862998485565,-11.425687789916992,-0.00018386868759989738,-0.560904324054718,0.002198565285652876,-0.06209744140505791,2.0566427248597243,0.75,-0.0037119814660400152,0.0,0,-1,0,False,0,0.0
8.36603081971407,106.41658782958984,-12.7758150100708,0.0015554428100585938,-89.61505126953125,0.04817332327365875,0.00032893975730985403,0.005824000108987093,-1.2883120775222778,0.00024695394677110016,0.06793619692325592,-14.340553283691406,-0.0009674072498455644,-0.6321415305137634,-0.0005170065560378134,-0.10040502995252609,4.6379709548606085,0.75,-0.003536002244800329,0.0,1,-1,0,False,0,0.0
8.416030820459127,106.41699981689453,-12.857134819030762,0.0014165878528729081,-89.62128448486328,0.07371822744607925,0.0004714235255960375,0.00826460961252451,-1.8225855827331543,0.0001928520214278251,0.04881218820810318,-10.685470581054688,-0.0010820385068655014,-0.41110238432884216,-0.00030141917522996664,-0.1418900489807129,6.561375591571107,0.75,-0.0032043156679719687,0.0,1,-1,0,False,0,0.0
8.466030821204185,106.41752624511719,-12.961588859558105,0.0013455962762236595,-89.62822723388672,0.0872419998049736,0.0005050210165791214,0.010304009541869164,-2.2328221797943115,0.0001460647617932409,0.04078799858689308,-8.204731941223145,-0.0009357451926916838,-0.1671123504638672,-0.00030847146990709007,-0.15301872789859772,8.038245455549085,0.75,-0.0028722919523715973,0.0,1,-1,0,False,0,0.0
8.516030821949244,106.41814422607422,-13.083296775817871,0.001330528175458312,-89.63558959960938,0.09086199849843979,0.00047275100951083004,0.012035133317112923,-2.5583081245422363,0.00010766982450149953,0.03462247550487518,-6.509718894958496,-0.0007678987458348274,-0.017775343731045723,-0.000974126800429076,-0.13388074934482574,9.21001116703923,0.75,-0.00258997012861073,0.0,1,-1,0,False,0,0.0
8.566030822694302,106.41883850097656,-13.220504760742188,0.0013409423409029841,-89.64276123046875,0.08986479043960571,0.000423248769948259,0.013578410260379314,-2.865244150161743,7.907867257017642e-05,0.030865538865327835,-6.138720512390137,-0.0005718230386264622,0.03818973898887634,-0.0002371503651374951,-0.13836362957954407,10.314994770571182,0.75,-0.002323177643120289,0.0,1,-1,0,False,0,0.0
8.61603082343936,106.41941833496094,-13.37215518951416,0.0013612365582957864,-89.65870666503906,0.0869346410036087,0.001165225519798696,0.008670306764543056,-3.144280433654785,5.658149530063383e-05,-0.09816206991672516,-5.58072566986084,-0.00044994353083893657,0.068323515355587,0.013710753992199898,-0.3753744959831238,11.319452597744819,0.75,-0.005787153262645006,0.0,1,-1,0,False,0,0.0
8.666030824184418,106.42012786865234,-13.53790283203125,0.0013824462657794356,-89.67003631591797,0.08369030058383942,0.0007178543019108474,0.01427131611853838,-3.4293553829193115,4.0979382902150974e-05,0.11202018707990646,-5.701498985290527,-0.0003120422479696572,0.059265829622745514,-0.01014744583517313,-0.1815333217382431,12.34578628147796,0.75,-0.002063777996227145,0.0,1,-1,0,False,0,0.0
8.716030824929476,106.42093658447266,-13.717316627502441,0.0014027022989466786,-89.67849731445312,0.08050743490457535,0.0003992529527749866,0.01590673439204693,-3.693800210952759,2.714157017180696e-05,0.032708365470170975,-5.288896560668945,-0.000276756240054965,0.06614534556865692,-0.0032575440127402544,-0.1688106656074524,13.297804058673728,0.75,-0.0020409678108990192,0.0,1,-1,0,False,0,0.0
8.766030825674534,106.42182159423828,-13.909656524658203,0.0014231872046366334,-89.68693542480469,0.07720162719488144,0.00032725572236813605,0.016777947545051575,-3.947014331817627,1.9073486328125e-05,0.017424263060092926,-5.064282417297363,-0.00016136167687363923,0.06699622422456741,3.1670562748331577e-05,-0.17098212242126465,14.20937996942792,0.75,-0.001991110621020198,0.0,1,-1,0,False,0,0.0
8.816030826419592,106.4227294921875,-14.114237785339355,0.0014435576740652323,-89.695068359375,0.07384800165891647,0.0002878319937735796,0.017837435007095337,-4.1878180503845215,9.050369044416584e-06,0.021189749240875244,-4.816074371337891,-0.00020046235295012593,0.06585124135017395,-4.582065957947634e-05,-0.1609017550945282,15.07628173778122,0.75,-0.0017400524811819196,0.0,1,-1,0,False,0,0.0
8.86603082716465,106.4237060546875,-14.330642700195312,0.0014624022878706455,-89.70244598388672,0.07072660326957703,0.0002338007470825687,0.018984360620379448,-4.421639442443848,9.641647011449095e-06,0.02293851226568222,-4.676427841186523,1.1825559340650216e-05,0.06037024408578873,-0.000275516853434965,-0.14445532858371735,15.918048709393084,0.75,-0.001472019124776125,0.0,1,-1,0,False,0,0.0
8.916030827909708,106.42565155029297,-14.55856990814209,0.001479301368817687,-89.66474151611328,0.06791256368160248,-0.0039062537252902985,0.05340762063860893,-4.650054931640625,7.209777777461568e-06,0.6884652376174927,-4.568309783935547,-4.8637382860761136e-05,0.05353508144617081,-0.07844319194555283,1.0827535390853882,16.741301849224673,0.75,0.013239447958767414,0.0,1,-1,0,False,0,0.0
8.966030828654766,106.42749786376953,-14.79784107208252,0.0014935684157535434,-89.64712524414062,0.06550151109695435,-0.0021057140547782183,0.033764228224754333,-4.875777721405029,2.6416778382554185e-06,-0.3928678631782532,-4.514455795288086,-9.13620024221018e-05,0.04461607336997986,0.05202179774641991,0.0864405557513237,17.553220656482623,0.75,-0.0012233040761202574,0.0,1,-1,0,False,0,0.0
9.016030829399824,106.4291000366211,-15.048315048217773,0.0016354370163753629,-89.64668273925781,0.06336366385221481,-0.00039672813727520406,0.03166921064257622,-5.098489284515381,0.005825528874993324,-0.04190035164356232,-4.454231262207031,0.1164577454328537,0.04316798597574234,0.024835390970110893,-0.021953579038381577,18.354927485165884,0.75,-0.0003992155834566802,0.0,1,-1,0,False,0,0.0
9.066030830144882,106.43077850341797,-15.309466361999512,0.0018085860647261143,-89.64350128173828,0.060979925096035004,-0.0003356966481078416,0.035043153911828995,-5.281167507171631,0.0018600462935864925,0.06747886538505554,-3.653564453125,-0.07930964976549149,0.08823664486408234,-0.0023575618397444487,0.13922502100467682,19.01262275192273,0.75,0.0009655969333834946,0.0,1,-1,0,False,0,0.0
9.11603083088994,106.43251037597656,-15.573153495788574,0.0019052886636927724,-89.6395034790039,0.0507824532687664,-0.00033568989601917565,0.03530467674136162,-5.289290428161621,0.00019519805209711194,0.005230456590652466,-0.1624584197998047,-0.033296965062618256,0.20933175086975098,0.0012156337033957243,0.07601740211248398,19.041869719253025,0.75,0.0006882058805786073,0.0,1,-1,0,False,0,0.0
9.166030831634998,106.43424224853516,-15.83847713470459,0.0019495772430673242,-89.63617706298828,0.04131581261754036,-0.0002746567188296467,0.0353672094643116,-5.3261332511901855,-0.00041547775617800653,0.0012506544589996338,-0.7368564605712891,-0.012213515117764473,0.1709039956331253,0.0026390044949948788,0.061084747314453125,19.174502486985887,0.75,0.0004902228247374296,0.0,1,-1,0,False,0,0.0
9.216030832380056,106.43603515625,-16.108367919921875,0.0019526671385392547,-89.63323974609375,0.03630245476961136,-0.000244140945142135,0.03629712015390396,-5.452106952667236,-0.0005632782122120261,0.01859821379184723,-2.5194740295410156,-0.00295600900426507,0.05434941127896309,0.0006083982298150659,0.058465056121349335,19.62802009269171,0.75,0.0004473291046451777,0.0,1,-1,0,False,0,0.0
9.266030833125114,106.43783569335938,-16.384294509887695,0.0019358444260433316,-89.6307601928711,0.034471962600946426,-0.0002136218681698665,0.037007465958595276,-5.567268371582031,-0.0005288887186907232,0.014206916093826294,-2.3032283782958984,0.0006877898704260588,0.028490278869867325,0.0008385565597563982,0.04627818614244461,20.04260902470209,0.75,0.00036514774546958506,0.0,1,-1,0,False,0,0.0
9.316030833870173,106.43971252441406,-16.668163299560547,0.0019070053240284324,-89.6285629272461,0.03530524671077728,-0.00018310446466784924,0.038392532616853714,-5.753268241882324,-0.0004406642692629248,0.027701333165168762,-3.7199974060058594,0.0017644889885559678,-0.044027697294950485,-0.00036408143932931125,0.036712851375341415,20.712226886156284,0.75,0.00035154298529960215,0.0,1,-1,0,False,0,0.0
9.36603083461523,106.441650390625,-16.96055030822754,0.001877593924291432,-89.62664031982422,0.037081096321344376,-0.00018310779705643654,0.039471786469221115,-5.9123687744140625,-0.00033905028249137104,0.021585077047348022,-3.1820106506347656,0.002032279735431075,-0.027901384979486465,8.152896771207452e-05,0.03635184094309807,21.285001951930145,0.75,0.000294111407129094,0.0,1,-1,0,False,0,0.0
9.416030835360289,106.4420394897461,-17.262598037719727,0.0018479155842214823,-89.70714569091797,0.039703886955976486,0.008259046822786331,-0.021960049867630005,-6.1271867752075195,-0.0002534675586502999,-1.2286367416381836,-4.296360015869141,0.0017116544768214226,-0.06816645711660385,0.17819152772426605,-2.3723340034484863,22.05801407921004,0.75,-0.02743038535118103,0.0,1,-1,0,False,0,0.0
9.466030836105347,106.44232177734375,-17.574359893798828,0.001823158236220479,-89.77266693115234,0.042108114808797836,0.005427934229373932,0.006347377318888903,-6.307460784912109,-0.00018746375280898064,0.5661485195159912,-3.605480194091797,0.0013200761750340462,-0.03397081047296524,-0.09395696222782135,-0.8076566457748413,22.706870333293196,0.75,-0.0001753696851665154,0.0,1,-1,0,False,0,0.0
9.516030836850405,106.44320678710938,-17.8966007232666,0.0018004607409238815,-89.79280853271484,0.044676266610622406,0.0017057200893759727,0.01901577226817608,-6.536231517791748,-0.00013343810860533267,0.25336790084838867,-4.575414657592773,0.0010805128840729594,-0.06209738180041313,-0.0556560680270195,-0.3075043857097626,23.530533048947504,0.75,0.001183776999823749,0.0,1,-1,0,False,0,0.0
9.566030837595463,106.44420623779297,-18.22909164428711,0.001783409039489925,-89.80391693115234,0.04664335772395134,0.0009096360299736261,0.018188245594501495,-6.725597858428955,-9.72652414930053e-05,-0.01655053347349167,-3.7873268127441406,0.0007234573131427169,-0.024156562983989716,-0.005375972017645836,-0.27942222356796265,24.212240829393522,0.75,-0.0016802968457341194,0.0,1,-1,0,False,0,0.0
9.61603083834052,106.44511413574219,-18.572429656982422,0.0017677688738331199,-89.813720703125,0.04865143448114395,0.0010318708373233676,0.016191644594073296,-6.960857391357422,-6.878852582303807e-05,-0.039932020008563995,-4.705190658569336,0.0005695343133993447,-0.0504002720117569,0.003154363250359893,0.0911623165011406,25.059154404086485,0.75,-0.002096141455695033,0.0,1,-1,0,False,0,0.0
9.666030839085579,106.44219207763672,-18.926109313964844,0.0017581176944077015,-90.02238464355469,0.04982622712850571,0.02341441810131073,-0.16106124222278595,-7.147979736328125,-4.964828258380294e-05,-3.545057773590088,-3.7424468994140625,0.00038280486478470266,-0.006986085791140795,0.6249750256538391,-7.218757152557373,25.739258600078355,0.75,-0.09727572649717331,0.0,1,-1,0,False,0,0.0
9.716030839830637,106.43650817871094,-19.290618896484375,0.0017484663985669613,-90.31271362304688,0.05114445462822914,0.024137789383530617,-0.1336582452058792,-7.386013507843018,-3.617286711232737e-05,0.5480599403381348,-4.760675430297852,0.00026950830942951143,-0.04139045253396034,-0.16374702751636505,-5.033379554748535,26.594001926252833,0.75,-0.013612091541290283,0.0,1,-1,0,False,0,0.0
9.766030840575695,106.43235778808594,-19.66574478149414,0.0017420959193259478,-90.43036651611328,0.05198456719517708,0.010929085314273834,-0.08283483237028122,-7.579315185546875,-2.2420883396989666e-05,1.0164682865142822,-3.8660335540771484,0.0002750396670307964,-0.0018041636794805527,-0.23489943146705627,-1.4754204750061035,27.287164172591496,0.75,0.003359230700880289,0.0,1,-1,0,False,0,0.0
9.816030841320753,106.42837524414062,-20.05177879333496,0.0017365264939144254,-90.48394012451172,0.052783697843551636,0.006606816314160824,-0.08896473795175552,-7.813074588775635,-1.5945433915476315e-05,-0.12259811162948608,-4.675188064575195,0.00012950898963026702,-0.02508283406496048,-0.037669550627470016,-0.695795476436615,28.12889187899046,0.75,-0.00594361312687397,0.0,1,-1,0,False,0,0.0
9.866030842065811,106.4200668334961,-20.447307586669922,0.0017404936952516437,-90.74480438232422,0.05200505629181862,0.029354851692914963,-0.28322744369506836,-7.966856956481934,-1.1920928955078125e-05,-3.885254383087158,-3.0756473541259766,8.04900992079638e-05,0.05422347038984299,0.6635851263999939,-8.547618865966797,28.69880340795817,0.0,-0.10594361275434494,0.04539470747113228,1,-1,0,False,0,0.0
9.91603084281087,106.40755462646484,-20.849027633666992,0.0017658233409747481,-91.13778686523438,0.047592755407094955,0.03527672961354256,-0.3005683124065399,-8.060405731201172,-1.0890960766118951e-05,-0.34681737422943115,-1.8709754943847656,2.0599363779183477e-05,0.126156285405159,-0.042533114552497864,-7.2562150955200195,29.03762808724404,0.0,-0.03454571217298508,0.30000001192092896,1,-1,0,False,0,0.0
9.966030843555927,106.39531707763672,-21.251075744628906,0.0018227767432108521,-91.3951644897461,0.037811923772096634,0.02441238798201084,-0.2663731873035431,-8.019925117492676,-2.689361508600996e-06,0.6839025020599365,0.8096122741699219,0.000164031982421875,0.22784946858882904,-0.2234054058790207,-4.103720664978027,28.887651171458085,0.0,-0.011024276725947857,0.30000001192092896,1,-1,0,False,0,0.0
10.016030844300985,106.38307189941406,-21.650386810302734,0.001891555730253458,-91.56395721435547,0.02604351006448269,0.017790736630558968,-0.2670372426509857,-7.96021842956543,-4.1007992876984645e-06,-0.013281106948852539,1.1941337585449219,-2.822875467245467e-05,0.22664162516593933,-0.09242510050535202,-3.0186147689819336,28.67290649561758,0.0,-0.01291110459715128,0.30000001192092896,1,-1,0,False,0,0.0
10.066030845046043,106.37033081054688,-22.04435920715332,0.0019636154174804688,-91.69977569580078,0.013749170117080212,0.015322523191571236,-0.2746628224849701,-7.823249340057373,-2.918243353633443e-06,-0.1525115966796875,2.739381790161133,2.365111868130043e-05,0.25528037548065186,-0.04516497626900673,-2.5489587783813477,28.181049695494412,0.0,-0.014414249919354916,0.30000001192092896,1,-1,0,False,0,0.0
10.116030845791101,106.35334014892578,-22.43164825439453,0.0020294571295380592,-92.0139389038086,0.002513509476557374,0.03613865375518799,-0.4646086096763611,-7.688174247741699,-7.724761985627993e-07,-3.7989158630371094,2.7015018463134766,4.291534423828125e-05,0.228618323802948,0.6834383010864258,-9.713573455810547,27.72791990274004,0.0,-0.11441425234079361,0.17176596820354462,1,-1,0,False,0,0.0
10.16603084653616,106.33206939697266,-22.81158447265625,0.002083434956148267,-92.45962524414062,-0.0066867549903690815,0.04278536140918732,-0.4851543605327606,-7.540862083435059,-1.4019011587151908e-06,-0.4109150171279907,2.9462432861328125,-1.2588498975674156e-05,0.17065131664276123,-0.04443904757499695,-8.412841796875,27.20322931685778,0.2746919095516205,-0.0505574531853199,0.0,1,-1,10,False,0,0.0
10.216030847281218,106.3104248046875,-23.18621826171875,0.0021148300729691982,-92.795166015625,-0.012055283412337303,0.03363440930843353,-0.4713001251220703,-7.462888717651367,-1.926422100950731e-06,0.27708470821380615,1.5594673156738281,-1.0490419299458154e-05,0.05497836694121361,-0.1754399687051773,-5.8904032707214355,26.919920883745082,0.75,-0.025578724220395088,0.0,1,-1,10,False,0,0.0
10.266030848026276,106.28841400146484,-23.55709457397461,0.0021270369179546833,-93.0404281616211,-0.01413166057318449,0.0263766348361969,-0.47165611386299133,-7.393868923187256,-5.7220457705398076e-08,-0.00711977481842041,1.3803958892822266,3.738403393072076e-05,0.018752358853816986,-0.12196006625890732,-4.406527042388916,26.67202977978094,0.75,-0.02293957956135273,0.0,1,-1,10,False,0,0.0
10.316030848771334,106.26547241210938,-23.927515029907227,0.002114257775247097,-93.2427749633789,-0.011966491118073463,0.02281462587416172,-0.49181193113327026,-7.422531604766846,-1.0490417423625331e-07,-0.4031163454055786,-0.5732536315917969,-9.5367431640625e-07,-0.08795463293790817,-0.03525612875819206,-3.8777174949645996,26.77970636537686,0.75,-0.02197522111237049,0.0,1,-1,10,False,0,0.0
10.366030849516392,106.24153900146484,-24.29983139038086,0.0020866775885224342,-93.4153823852539,-0.007267320994287729,0.020051633939146996,-0.5055398941040039,-7.465156078338623,-1.9168853668816155e-06,-0.27455925941467285,-0.8524894714355469,-3.62396240234375e-05,-0.09978533536195755,-0.04895341023802757,-3.2425475120544434,26.93611462564778,0.75,-0.018752705305814743,0.0,1,-1,10,False,0,0.0
10.41603085026145,106.21259307861328,-24.67605209350586,0.0020492554176598787,-93.77205657958984,-0.0008879245724529028,0.041510578244924545,-0.7174919843673706,-7.55750846862793,-2.670288040462765e-06,-4.239041805267334,-1.8470478057861328,-1.5068053471622989e-05,-0.09583570808172226,0.7116066813468933,-10.617431640625,27.32936603460164,0.75,-0.11875270307064056,0.0,1,-1,10,False,0,0.0
10.466030851006508,106.1781005859375,-25.05728530883789,0.0020097349770367146,-94.28124237060547,0.005832981318235397,0.05006769672036171,-0.7716132998466492,-7.662149906158447,-8.964538551481382e-07,-1.0824263095855713,-2.0928287506103516,3.5476681659929454e-05,-0.12098778784275055,0.02004004828631878,-9.968165397644043,27.72325576777602,0.6823592185974121,-0.06215962767601013,0.0,1,-1,10,False,0,0.0
10.516030851751566,106.14179229736328,-25.44510269165039,0.0019715880043804646,-94.69146728515625,0.012328490614891052,0.04163733124732971,-0.7827013731002808,-7.80552339553833,1.659393319641822e-06,-0.22176146507263184,-2.8674697875976562,5.1116945542162284e-05,-0.13699540495872498,-0.1536056399345398,-7.364279747009277,28.24080500364794,0.29138049483299255,-0.03384656459093094,0.0,1,-1,10,False,0,0.0
10.566030852496624,106.1043701171875,-25.836931228637695,0.001957969507202506,-95.00159454345703,0.014671245589852333,0.03324952349066734,-0.7895876169204712,-7.835169315338135,2.1076202756376006e-06,-0.1377248764038086,-0.5929183959960938,8.964539119915571e-06,0.0019538209307938814,-0.14816102385520935,-5.614585876464844,28.349474693376603,0.0,-0.028077229857444763,0.22508849203586578,1,-1,10,False,0,0.0
10.616030853241682,106.06593322753906,-26.228309631347656,0.001975440885871649,-95.25716400146484,0.01168645266443491,0.02832711488008499,-0.8068010807037354,-7.810182094573975,1.23977656585339e-07,-0.3442692756652832,0.4997444152832031,-3.967285010730848e-05,0.0752357766032219,-0.07071099430322647,-4.878798484802246,28.266275761967712,0.0,-0.025896882638335228,0.30000001192092896,1,-1,10,False,0,0.0
10.66603085398674,106.02320861816406,-26.615079879760742,0.0020161436405032873,-95.66597747802734,0.004746981430798769,0.04638127610087395,-0.9775102734565735,-7.672043323516846,5.626678216685832e-07,-3.4141838550567627,2.762775421142578,8.77380352903856e-06,0.21971577405929565,0.5043554902076721,-10.905853271484375,27.84263718113861,0.0,-0.1258968859910965,0.25232622027397156,1,-1,10,False,0,0.0
10.716030854731798,105.97537994384766,-26.99619483947754,0.0020562743302434683,-96.2333984375,-0.0020763773936778307,0.05625490844249725,-1.051621913909912,-7.5833611488342285,-4.76837158203125e-07,-1.4822328090667725,1.7736434936523438,-2.079009937006049e-05,0.11864032596349716,0.10522448271512985,-11.604708671569824,27.56135053887047,0.1697138547897339,-0.07501797378063202,0.0,1,-1,10,False,0,0.0
10.766030855476856,105.92613220214844,-27.372570037841797,0.0020866775885224342,-96.71662139892578,-0.007294641807675362,0.04868456348776817,-1.041555643081665,-7.482104778289795,3.147125084979052e-07,0.2013254165649414,2.025127410888672,1.583099401614163e-05,0.07899458706378937,-0.2071051150560379,-8.67093276977539,27.195308818239457,0.44939690828323364,-0.044566165655851364,0.0,1,-1,10,False,0,0.0
10.816030856221914,105.8760986328125,-27.745763778686523,0.002100448589771986,-97.09077453613281,-0.009644226171076298,0.03984352946281433,-1.0523858070373535,-7.448805332183838,-6.294250169958104e-07,-0.21660327911376953,0.6659889221191406,-1.888275073724799e-05,-0.008027609437704086,-0.12828300893306732,-6.9139180183410645,27.082007482027116,0.75,-0.03521134704351425,0.0,1,-1,10,False,0,0.0
10.866030856966972,105.82493591308594,-28.117748260498047,0.002096977084875107,-97.3929672241211,-0.00906366016715765,0.03378688544034958,-1.066530466079712,-7.433236122131348,-1.6117095356094069e-06,-0.28289318084716797,0.3113842010498047,-1.9645689462777227e-05,-0.03779371827840805,-0.10398633033037186,-5.607470989227295,27.033695729818085,0.75,-0.03151357173919678,0.0,1,-1,10,False,0,0.0
10.91603085771203,105.77220153808594,-28.49161148071289,0.0020735168363898993,-97.64936065673828,-0.005033849272876978,0.029762176796793938,-1.0993828773498535,-7.504714012145996,2.19345088225964e-06,-0.657048225402832,-1.4295578002929688,7.610320608364418e-05,-0.11979769915342331,-0.03586975485086441,-4.90416145324707,27.305323684071105,0.75,-0.02733028680086136,0.0,1,-1,10,False,0,0.0
10.966030858457088,105.7139892578125,-28.86826515197754,0.002043609507381916,-98.0750503540039,6.830188794992864e-05,0.0496453158557415,-1.3055028915405273,-7.539717197418213,8.583068620282575e-07,-4.122400283813477,-0.7000637054443359,-2.6702880859375e-05,-0.01053941622376442,0.5971813201904297,-11.595067977905273,27.546863431080048,0.703175961971283,-0.12733028829097748,0.0,1,-1,10,False,0,0.0
11.016030859202147,105.6488037109375,-29.248937606811523,0.0020093154162168503,-98.68247985839844,0.005914943292737007,0.061519552022218704,-1.4173272848129272,-7.642897129058838,-5.598068128165323e-06,-2.236487865447998,-2.0635986328125,-0.00012912749662064016,-0.1005554050207138,0.1622510850429535,-12.46719741821289,27.98353271700275,0.46207720041275024,-0.08026033639907837,0.0,1,-1,10,False,0,0.0
11.066030859947205,105.58085632324219,-29.63359260559082,0.0019859694875776768,-99.20294189453125,0.009869622997939587,0.05332346633076668,-1.4271944761276245,-7.700843334197998,-2.727508444877458e-06,-0.1973438262939453,-1.1589241027832031,5.741119457525201e-05,-0.07422754168510437,-0.20413774251937866,-9.38272762298584,28.195119131013378,0.026051107794046402,-0.04679972678422928,0.0,1,-1,10,False,0,0.0
11.116030860692263,105.51145935058594,-30.01967430114746,0.0019859694875776768,-99.60696411132812,0.009876453317701817,0.043487656861543655,-1.443221092224121,-7.709526062011719,8.583068620282575e-07,-0.32053232192993164,-0.17365455627441406,7.171630568336695e-05,0.0036430787295103073,-0.15131676197052002,-7.469212055206299,28.236413418059225,0.0,-0.03661532700061798,0.1851494163274765,1,-1,10,False,0,0.0
11.16603086143732,105.44127655029297,-30.402923583984375,0.002013053745031357,-99.93287658691406,0.005259245168417692,0.03644903376698494,-1.4426298141479492,-7.618271350860596,2.2602080207434483e-06,0.0118255615234375,1.825094223022461,2.8038022719556466e-05,0.10614889115095139,-0.1463259607553482,-6.011806011199951,27.913175015787438,0.0,-0.032618239521980286,0.22636905312538147,1,-1,10,False,0,0.0
11.216030862182379,105.36679077148438,-30.780799865722656,0.002049522241577506,-100.40979766845703,-0.0009767169831320643,0.05465872958302498,-1.633331298828125,-7.494327068328857,-3.5953521546616685e-06,-3.8140296936035156,2.4788856506347656,-0.00011711120168911293,0.2328985184431076,0.6261085867881775,-12.85981273651123,27.61289396335073,0.0966930091381073,-0.132618248462677,0.0,1,-1,10,False,0,0.0
11.266030862927437,105.28704833984375,-31.15251922607422,0.002082939026877284,-101.05181121826172,-0.006625283043831587,0.06486207246780396,-1.68976891040802,-7.373106479644775,-4.386901650832442e-07,-1.1287522315979004,2.4244117736816406,6.31332368357107e-05,0.11943399161100388,0.016938187181949615,-12.766599655151367,27.231333330828086,0.3968451917171478,-0.08736684173345566,0.0,1,-1,10,False,0,0.0
11.316030863672495,105.20565032958984,-31.52037239074707,0.0021002197172492743,-101.60858917236328,-0.009582755155861378,0.05706741288304329,-1.7020421028137207,-7.329130172729492,1.1539458455445128e-06,-0.24546384811401367,0.8795261383056641,3.1852719985181466e-05,-0.00987311638891697,-0.15218831598758698,-10.36173152923584,27.08700296184522,0.75,-0.054056379944086075,0.0,1,-1,10,False,0,0.0
11.366030864417553,105.12316131591797,-31.88636589050293,0.0021004867739975452,-102.04695129394531,-0.009644226171076298,0.04706993326544762,-1.7068849802017212,-7.302784442901611,1.4877318790240679e-06,-0.09685754776000977,0.5269145965576172,6.675720669591101e-06,-0.05048872157931328,-0.18112242221832275,-7.965190410614014,26.998588032310803,0.75,-0.04244993254542351,0.0,1,-1,10,False,0,0.0
11.416030865162611,105.03878784179688,-32.253562927246094,0.002080039819702506,-102.40614318847656,-0.006133509334176779,0.040437813848257065,-1.7484922409057617,-7.361043930053711,4.863738922722405e-07,-0.8321452140808105,-1.1651897430419922,-2.002716064453125e-05,-0.12140040099620819,-0.05940217897295952,-6.817573070526123,27.23708536944955,0.75,-0.0374397337436676,0.0,1,-1,10,False,0,0.0
11.466030865907669,104.95220184326172,-32.6239128112793,0.0020487213041633368,-102.70841979980469,-0.0007923019002191722,0.03520751744508743,-1.7824448347091675,-7.42770528793335,9.5367431640625e-07,-0.6790518760681152,-1.3332271575927734,9.34600848268019e-06,-0.12425900995731354,-0.07461725175380707,-5.6661906242370605,27.498890596057734,0.75,-0.03198480233550072,0.0,1,-1,10,False,0,0.0
11.516030866652727,104.859130859375,-32.998050689697266,0.002013320801779628,-103.18327331542969,0.005225094500929117,0.055596426129341125,-2.0229990482330322,-7.487030982971191,-3.623962356869015e-06,-4.811084270477295,-1.186513900756836,-9.1552734375e-05,0.04132875055074692,0.7014335989952087,-12.958995819091797,27.91988769381416,0.511124312877655,-0.13198480010032654,0.0,1,-1,10,False,0,0.0
11.566030867397785,104.75855255126953,-33.37477493286133,0.0019888686947524548,-103.84600067138672,0.009425660595297813,0.06752177327871323,-2.1244757175445557,-7.528693675994873,-3.337860050578456e-07,-2.0295333862304688,-0.8332538604736328,6.580352783203125e-05,-0.03180436044931412,0.08065540343523026,-13.347722053527832,28.16171775685153,0.09028632938861847,-0.08856619149446487,0.0,1,-1,10,False,0,0.0
11.616030868142843,104.65504455566406,-33.75303649902344,0.0019845198839902878,-104.42285919189453,0.010129169560968876,0.059345316141843796,-2.1475882530212402,-7.547937393188477,1.430511474609375e-06,-0.4622507095336914,-0.3848743438720703,3.528594970703125e-05,-0.028524789959192276,-0.16852113604545593,-10.68947982788086,28.251054578197362,0.0,-0.05302731320261955,0.15146023035049438,1,-1,10,False,0,0.0
11.666030868887901,104.55078887939453,-34.128936767578125,0.0020084381103515625,-104.87251281738281,0.006058377679437399,0.048265814781188965,-2.13321590423584,-7.467131614685059,5.054473604104714e-07,0.2874469757080078,1.6161155700683594,-1.8501283193472773e-05,0.06563092768192291,-0.23136068880558014,-8.109907150268555,27.95711526249943,0.0,-0.04098248854279518,0.24083365499973297,1,-1,10,False,0,0.0
11.71603086963296,104.44611358642578,-34.50074768066406,0.00204093917272985,-105.23616027832031,0.0005054339999333024,0.040821075439453125,-2.140855312347412,-7.398211479187012,3.9100646631595737e-07,-0.1527881622314453,1.3784027099609375,-2.2888179955771193e-06,0.06502130627632141,-0.12058752030134201,-6.870448589324951,27.726262955670435,0.05299581214785576,-0.03635264188051224,0.0,1,-1,10,False,0,0.0
11.766030870378017,104.33775329589844,-34.86638641357422,0.0020763014908879995,-105.73350524902344,-0.005491471849381924,0.05736924335360527,-2.2910001277923584,-7.226545333862305,-2.918243353633443e-06,-3.002896308898926,3.4333229064941406,-6.618499901378527e-05,0.26069578528404236,0.44389593601226807,-12.57129955291748,27.291618531355837,0.2835646867752075,-0.13635264337062836,0.0,1,-1,10,False,0,0.0
11.816030871123075,104.22418975830078,-35.22585678100586,0.002100143348798156,-106.40912628173828,-0.009582755155861378,0.0691901221871376,-2.3830039501190186,-7.134783744812012,-2.6416778382554185e-06,-1.8400764465332031,1.8352317810058594,5.531310307560489e-06,0.09122401475906372,0.14826300740242004,-14.025035858154297,27.080004726243036,0.7180584073066711,-0.0952010303735733,0.0,1,-1,10,False,0,0.0
11.866030871868134,104.10871887207031,-35.5820198059082,0.0021076584234833717,-107.00813293457031,-0.010832679457962513,0.061627332121133804,-2.3817241191864014,-7.087477207183838,-6.771087441848067e-07,0.02559661865234375,0.9461307525634766,3.9291378925554454e-05,-0.05099806562066078,-0.2057395726442337,-10.94829273223877,26.91705891310854,0.75,-0.05990324541926384,0.0,1,-1,10,False,0,0.0
11.916030872613192,103.99147033691406,-35.93828582763672,0.00209217076189816,-107.48456573486328,-0.008244037628173828,0.0514126680791378,-2.417480945587158,-7.126589298248291,-4.863738922722405e-07,-0.7151365280151367,-0.7822418212890625,3.8146970382513246e-06,-0.1311822533607483,-0.1147596687078476,-8.849922180175781,27.09164187273389,0.75,-0.046263713389635086,0.0,1,-1,10,False,0,0.0
11.96603087335825,103.87184143066406,-36.296695709228516,0.0020642089657485485,-107.87207794189453,-0.0034492453560233116,0.04371195286512375,-2.4540929794311523,-7.17570686340332,1.8692015828492003e-06,-0.7322406768798828,-0.9823513031005859,4.711150540970266e-05,-0.13479621708393097,-0.10285564512014389,-7.209033966064453,27.30151834205977,0.75,-0.040342915803194046,0.0,1,-1,10,False,0,0.0
12.016030874103308,103.74905395507812,-36.65945816040039,0.002025718567892909,-108.20121765136719,0.003107735887169838,0.038419563323259354,-2.521700143814087,-7.288766384124756,-1.3923644246460753e-06,-1.3521432876586914,-2.261190414428711,-6.523131742142141e-05,-0.16318590939044952,-0.018959229812026024,-6.296150207519531,27.76556730464707,0.7092369794845581,-0.03478960320353508,0.0,1,-1,10,False,0,0.0
12.066030874848366,103.6193618774414,-37.02553939819336,0.001992797711864114,-108.69662475585938,0.008735811337828636,0.057843249291181564,-2.745683431625366,-7.302326679229736,-3.2615660074952757e-06,-4.479665756225586,-0.2712059020996094,-3.7384030292741954e-05,0.10687845945358276,0.5763410925865173,-12.97739315032959,28.08525007156361,0.24557378888130188,-0.1347896009683609,0.0,1,-1,10,False,0,0.0
12.116030875593424,103.48184204101562,-37.39280319213867,0.0019772339146584272,-109.38976287841797,0.011399584822356701,0.07090876251459122,-2.8739230632781982,-7.319833755493164,-2.880096417356981e-06,-2.5647926330566406,-0.3501415252685547,7.629391802765895e-06,0.03141745552420616,0.1719541847705841,-14.363221168518066,28.309691339944578,0.0,-0.09355530887842178,0.07391780614852905,1,-1,10,False,0,0.0
12.166030876338482,103.34195709228516,-37.75889205932617,0.001990356482565403,-109.99779510498047,0.0090978117659688,0.06228455901145935,-2.861865520477295,-7.268595218658447,5.054473604104714e-07,0.2411508560180664,1.024770736694336,6.771087646484375e-05,0.012384060770273209,-0.2546617090702057,-11.02040958404541,28.12214161833375,0.0,-0.05637199059128761,0.29850566387176514,1,-1,10,False,0,0.0
12.21603087708354,103.20179748535156,-38.12156295776367,0.002021255437284708,-110.47334289550781,0.003879547119140625,0.05100394785404205,-2.8577919006347656,-7.20809268951416,1.09672544112982e-06,0.08147239685058594,1.2100505828857422,1.182556115963962e-05,0.033697377890348434,-0.19461007416248322,-8.778328895568848,27.914181503185652,0.0,-0.04327959567308426,0.11136850714683533,1,-1,10,False,0,0.0
12.266030877828598,103.061767578125,-38.4795036315918,0.0020565413869917393,-110.85346221923828,-0.002165169920772314,0.04287020117044449,-2.8360683917999268,-7.0992631912231445,3.767013367905747e-06,0.43447017669677734,2.1765899658203125,5.3405754442792386e-05,0.07128304243087769,-0.18289309740066528,-6.984997272491455,27.52124579819792,0.09612181037664413,-0.03821634128689766,0.0,1,-1,10,False,0,0.0
12.316030878573656,102.91844177246094,-38.8309211730957,0.0020888519939035177,-111.37389373779297,-0.00766347162425518,0.06020093709230423,-3.0002102851867676,-6.93411111831665,2.1457672119140625e-06,-3.2828378677368164,3.303041458129883,-3.242492311983369e-05,0.3216254711151123,0.5617543458938599,-13.656641960144043,27.19922310442597,0.4884834587574005,-0.13821634650230408,0.0,1,-1,10,False,0,0.0
12.366030879318714,102.77059936523438,-39.17543029785156,0.0021111296955496073,-112.06661987304688,-0.011467887088656425,0.07114453613758087,-3.052734851837158,-6.8177714347839355,-2.5177000679832418e-06,-1.0504913330078125,2.326793670654297,-9.326934377895668e-05,0.0808761864900589,0.027890795841813087,-13.90660285949707,26.89207166558725,0.75,-0.09786290675401688,0.0,1,-1,10,False,0,0.0
12.416030880063772,102.62065887451172,-39.51747512817383,0.0021093368995934725,-112.68243408203125,-0.011140038259327412,0.06379812955856323,-3.0844569206237793,-6.814436912536621,1.9073486328125e-06,-0.6344413757324219,0.06669044494628906,8.850097219692543e-05,-0.1014040932059288,-0.11072946339845657,-11.560720443725586,26.928005999228283,0.75,-0.06247042119503021,0.0,1,-1,10,False,0,0.0
12.46603088080883,102.46869659423828,-39.85984802246094,0.002089805668219924,-113.173828125,-0.007806906010955572,0.05313675478100777,-3.106515645980835,-6.834351062774658,1.9741057712963084e-06,-0.4411745071411133,-0.3982830047607422,1.3351427696761675e-06,-0.1476711928844452,-0.15932047367095947,-8.96826457977295,27.026097924920244,0.75,-0.04836723953485489,0.0,1,-1,10,False,0,0.0
12.516030881553888,102.3135757446289,-40.20502853393555,0.002055320655927062,-113.57805633544922,-0.00191928306594491,0.045706868171691895,-3.17802095413208,-6.919949054718018,7.343292054429185e-07,-1.4301061630249023,-1.7119598388671875,-2.47955322265625e-05,-0.17008385062217712,-0.03008691407740116,-7.674049377441406,27.413358730337205,0.75,-0.042155660688877106,0.0,1,-1,10,False,0,0.0
12.566030882298946,102.15131378173828,-40.55219650268555,0.002020721323788166,-114.13304901123047,0.003975169733166695,0.06391049921512604,-3.402276039123535,-6.906362056732178,-3.7193296975601697e-07,-4.485101699829102,0.2717399597167969,-2.2125243049231358e-05,0.1383470594882965,0.5512678027153015,-14.081647872924805,27.716100295705957,0.5981131196022034,-0.14215566217899323,0.0,1,-1,10,False,0,0.0
12.616030883044004,101.98045349121094,-40.9010009765625,0.0019901276100426912,-114.86865234375,0.0092002646997571,0.07567337900400162,-3.553248882293701,-6.958833694458008,-4.0721893128647935e-06,-3.0194568634033203,-1.0494327545166016,-7.400513277389109e-05,-0.026324722915887833,0.1811644583940506,-15.081376075744629,28.12863726394048,0.2962944209575653,-0.09687469154596329,0.0,1,-1,10,False,0,0.0
12.666030883789062,101.80580139160156,-41.25144958496094,0.0019792173989117146,-115.50743865966797,0.011030755005776882,0.0661812424659729,-3.568390369415283,-6.973781108856201,2.0408629097801168e-06,-0.3028297424316406,-0.2989482879638672,0.0001222610444528982,-0.09425006061792374,-0.2297860085964203,-11.606707572937012,28.201360691725903,0.0,-0.05949478968977928,0.11578992009162903,1,-1,10,False,0,0.0
12.71603088453412,101.62986755371094,-41.600921630859375,0.0019932936411350965,-116.0103759765625,0.008647019043564796,0.05442888289690018,-3.5774638652801514,-6.947422504425049,2.8038023174303817e-06,-0.18146991729736328,0.5271720886230469,1.5258788153005298e-05,-0.019436895847320557,-0.18872252106666565,-9.324755668640137,28.131858381992924,0.0,-0.04624713957309723,0.18871140480041504,1,-1,10,False,0,0.0
12.766030885279179,101.4540023803711,-41.946617126464844,0.0020252990070730448,-116.41581726074219,0.0031623775139451027,0.04572557285428047,-3.5513036251068115,-6.85194730758667,2.1648406800522935e-06,0.5232048034667969,1.9095039367675781,-1.2779232747561764e-05,0.05172143876552582,-0.20063041150569916,-7.4635396003723145,27.7832642771444,0.0,-0.04061327129602432,0.11975327879190445,1,-1,10,False,0,0.0
12.816030886024237,101.278564453125,-42.287811279296875,0.0020583344157785177,-116.75497436523438,-0.0024725282564759254,0.03965732827782631,-3.544015407562256,-6.776082992553711,5.81741346650233e-07,0.14576435089111328,1.5172863006591797,-3.166198803228326e-05,0.044097233563661575,-0.11545049399137497,-6.4621710777282715,27.52890268910023,0.228185772895813,-0.03515946865081787,0.0,1,-1,10,False,0,0.0
12.866030886769295,101.10073852539062,-42.622318267822266,0.0020895004272460938,-117.23560333251953,-0.007752264384180307,0.05659240484237671,-3.6615965366363525,-6.587143421173096,-3.0517577442878974e-07,-2.3516225814819336,3.7787914276123047,-1.773834264895413e-05,0.3262362480163574,0.3990352153778076,-12.29170036315918,27.13114095501367,0.4817231595516205,-0.1351594626903534,0.0,1,-1,10,False,0,0.0
12.916030887514353,100.91841888427734,-42.95066452026367,0.002103462116792798,-117.9081039428711,-0.010135999880731106,0.06950836628675461,-3.7529830932617188,-6.5018157958984375,-5.836486707266886e-06,-1.8277311325073242,1.706552505493164,-0.00011062621342716739,0.09388837218284607,0.1665332317352295,-14.068367958068848,27.026025235281878,0.75,-0.09704502671957016,0.0,1,-1,10,False,0,0.0
12.96603088825941,100.73385620117188,-43.277061462402344,0.002097282325848937,-118.51168823242188,-0.0090978117659688,0.06243574991822243,-3.7638487815856934,-6.491860389709473,3.271102741564391e-06,-0.2173137664794922,0.19910812377929688,0.00018215177988167852,-0.12820903956890106,-0.16430065035820007,-11.072760581970215,27.014590210716353,0.75,-0.06087064743041992,0.0,1,-1,10,False,0,0.0
13.016030889004469,100.54660034179688,-43.60483932495117,0.0020710753742605448,-118.99303436279297,-0.0046376981772482395,0.05220939591526985,-3.823780059814453,-6.553478240966797,2.899169885495212e-06,-1.1986255645751953,-1.2323570251464844,-7.438657121383585e-06,-0.17901764810085297,-0.07272965461015701,-8.938558578491211,27.314813712867622,0.75,-0.046542588621377945,0.0,1,-1,10,False,0,0.0
13.066030889749527,100.3558349609375,-43.93551254272461,0.002037124475464225,-119.38477325439453,0.0011679623275995255,0.04435398429632187,-3.8810060024261475,-6.614999771118164,4.177093614998739e-06,-1.1445188522338867,-1.2304306030273438,2.5558474590070546e-05,-0.16389471292495728,-0.07053864747285843,-7.292474746704102,27.610012081373863,0.695244550704956,-0.04039684310555458,0.0,1,-1,10,False,0,0.0
13.116030890494585,100.15748596191406,-44.26778793334961,0.0020038604270666838,-119.93523406982422,0.006850679405033588,0.06356506794691086,-4.131354808807373,-6.594106197357178,-4.2915343101412873e-07,-5.006976127624512,0.41787147521972656,-9.212493750965223e-05,0.24698293209075928,0.6402965784072876,-14.414621353149414,28.01307311084796,0.4003114104270935,-0.140396848320961,0.0,1,-1,10,False,0,0.0
13.166030891239643,99.95125579833984,-44.59955978393555,0.0019857787992805243,-120.66690826416016,0.009924264624714851,0.0748705044388771,-4.2359113693237305,-6.584266662597656,-8.29696659820911e-07,-2.0911312103271484,0.1967906951904297,-8.010864803509321e-06,0.009426160715520382,0.06079639121890068,-14.671822547912598,28.18492227173924,0.0,-0.09702759236097336,0.0024607141967862844,1,-1,10,False,0,0.0
13.216030891984701,99.7420654296875,-44.930843353271484,0.0019894028082489967,-121.30581665039062,0.009282226674258709,0.06599856913089752,-4.257277965545654,-6.575043678283691,1.8310546465727384e-06,-0.42733192443847656,0.18445968627929688,5.321502612787299e-05,-0.06072734296321869,-0.17423422634601593,-11.891047477722168,28.198737046408986,0.0,-0.05984506011009216,0.17426878213882446,1,-1,10,False,0,0.0
13.26603089272976,99.53301239013672,-45.25890350341797,0.0020175932440906763,-121.80731964111328,0.004466943442821503,0.05402958020567894,-4.217137813568115,-6.492523193359375,1.8787383169183158e-06,0.8028030395507812,1.6504096984863281,9.536734069115482e-07,-0.007475770078599453,-0.25989675521850586,-9.060256958007812,27.870861656289165,0.0,-0.04631398990750313,0.18825075030326843,1,-1,10,False,0,0.0
13.316030893474817,99.32469177246094,-45.58262252807617,0.0020506668370217085,-122.2136459350586,-0.0011611321242526174,0.045809753239154816,-4.205342769622803,-6.419912338256836,1.8501281147109694e-06,0.23590087890625,1.4522171020507812,-5.722040441469289e-07,0.019275549799203873,-0.14270859956741333,-7.67774772644043,27.62872349281418,0.13940565288066864,-0.040847357362508774,0.0,1,-1,10,False,0,0.0
13.366030894219875,99.1144790649414,-45.899314880371094,0.0020836638286709785,-122.74760437011719,-0.006775547284632921,0.061782434582710266,-4.30374002456665,-6.214353561401367,-1.3828276905769599e-06,-1.9679450988769531,4.111175537109375,-6.465911428676918e-05,0.36342400312423706,0.34561657905578613,-13.26855182647705,27.212849433157178,0.38129425048828125,-0.1408473551273346,0.0,1,-1,10,False,0,0.0
13.416030894964933,98.900634765625,-46.20893859863281,0.0021026229951530695,-123.45610046386719,-0.009978906251490116,0.07321237027645111,-4.376020431518555,-6.109976291656494,1.1730194273695815e-06,-1.445608139038086,2.087545394897461,5.111694190418348e-05,0.11113975197076797,0.12309152632951736,-14.665964126586914,27.055470643063863,0.75,-0.0991172268986702,0.0,1,-1,10,False,0,0.0
13.466030895709991,98.68521881103516,-46.51560974121094,0.0021026991307735443,-124.08377838134766,-0.010006226599216461,0.06520891189575195,-4.375215530395508,-6.082769870758057,5.626678216685832e-07,0.0160980224609375,0.54412841796875,-1.2207032341393642e-05,-0.1346443146467209,-0.1750698983669281,-11.492244720458984,26.974211741674527,0.75,-0.06300972402095795,0.0,1,-1,10,False,0,0.0
13.51603089645505,98.4674072265625,-46.82263946533203,0.0020812605507671833,-124.58445739746094,-0.006379396189004183,0.054575663059949875,-4.4335432052612305,-6.1242194175720215,4.1961669694501325e-07,-1.1665534973144531,-0.8289909362792969,-2.861022494471399e-06,-0.1767759919166565,-0.06644032895565033,-9.309473991394043,27.21808773599273,0.75,-0.04872122406959534,0.0,1,-1,10,False,0,0.0
13.566030897200108,98.24610137939453,-47.131649017333984,0.0020496367942541838,-124.99259185791016,-0.0009493962279520929,0.04645317792892456,-4.4927754402160645,-6.172119617462158,1.5258788153005298e-06,-1.1846446990966797,-0.9580039978027344,2.2125241230241954e-05,-0.17127475142478943,-0.05965709686279297,-7.599450588226318,27.482903572966954,0.75,-0.04233585670590401,0.0,1,-1,10,False,0,0.0
13.616030897945166,98.02015686035156,-47.44423294067383,0.002010955708101392,-125.33917999267578,0.005614415276795626,0.040768012404441833,-4.592933654785156,-6.261394500732422,-8.583068620282575e-07,-2.003164291381836,-1.7854976654052734,-4.76837158203125e-05,-0.15740865468978882,0.018361974507570267,-6.628260612487793,27.95513019890538,0.5274968147277832,-0.03635980933904648,0.0,1,-1,10,False,0,0.0
13.666030898690224,97.787109375,-47.75725555419922,0.0019862365443259478,-125.84807586669922,0.009842301718890667,0.05961507558822632,-4.793629169464111,-6.186174392700195,-3.4427641821821453e-06,-4.013910293579102,1.5044021606445312,-5.168914867681451e-05,0.29305246472358704,0.4822993278503418,-13.177071571350098,28.173912394926315,0.05541505664587021,-0.1363598108291626,0.0,1,-1,10,False,0,0.0
13.716030899435282,97.54736328125,-48.067527770996094,0.001984672388061881,-126.55211639404297,0.010149660520255566,0.07227113097906113,-4.896503925323486,-6.12980318069458,-3.271102741564391e-06,-2.0574951171875,1.1274242401123047,3.4332288123550825e-06,0.1170276552438736,0.12146451324224472,-14.59145736694336,28.2434254458104,0.0,-0.09537476301193237,0.16333961486816406,1,-1,10,False,0,0.0
13.76603090018034,97.30675506591797,-48.37445068359375,0.0020086669828742743,-127.17125701904297,0.005996905732899904,0.06359163671731949,-4.854710102081299,-6.061212062835693,-3.2520292734261602e-06,0.83587646484375,1.3718223571777344,3.814693627646193e-07,-0.04464127868413925,-0.2613590955734253,-11.231278419494629,27.95661395668648,0.0,-0.05804841220378876,0.2329643815755844,1,-1,10,False,0,0.0
13.816030900925398,97.06719207763672,-48.67749786376953,0.0020408248528838158,-127.65596771240234,0.0005122641450725496,0.05224166065454483,-4.831137657165527,-6.000278949737549,2.422332727292087e-06,0.4714488983154297,1.2186622619628906,0.00011348724365234375,-0.030650679022073746,-0.19245845079421997,-8.948890686035156,27.732442579792586,0.053632721304893494,-0.04452574998140335,0.0,1,-1,10,False,0,0.0
13.866030901670456,96.82910919189453,-48.9760627746582,0.002072830218821764,-128.0434112548828,-0.004910905845463276,0.04394601657986641,-4.779501914978027,-5.903818130493164,2.0217894416418858e-06,1.03271484375,1.9292163848876953,-8.010865713004023e-06,-0.00010713191295508295,-0.189857617020607,-7.121952533721924,27.34547940097163,0.2775447964668274,-0.039230454713106155,0.0,1,-1,10,False,0,0.0
13.916030902415514,96.58943176269531,-49.26781463623047,0.0020977018866688013,-128.57077026367188,-0.00915928278118372,0.06118105724453926,-4.899959087371826,-5.711694717407227,-3.8146970382513246e-07,-2.4091434478759766,3.84246826171875,-4.806518700206652e-05,0.4479832351207733,0.46045807003974915,-13.791611671447754,27.091777361627095,0.6641764044761658,-0.13923045992851257,0.0,1,-1,10,False,0,0.0
13.966030903160572,96.34648895263672,-49.55275344848633,0.0021082686726003885,-129.27197265625,-0.010955622419714928,0.07222796231508255,-4.940371990203857,-5.611902236938477,-6.294250169958104e-07,-0.808258056640625,1.995849609375,-4.95910626341356e-06,0.05366319417953491,0.03493061289191246,-14.109029769897461,26.916042774827805,0.75,-0.09886464476585388,0.0,1,-1,10,False,0,0.0
14.01603090390563,96.10094451904297,-49.8361701965332,0.002094001742079854,-129.89605712890625,-0.008510415442287922,0.06493201851844788,-4.995104789733887,-5.6280198097229,5.531310875994677e-07,-1.094655990600586,-0.32235145568847656,2.365112231927924e-05,-0.15877030789852142,-0.050818800926208496,-11.708024024963379,27.090012878442256,0.75,-0.06308864057064056,0.0,1,-1,10,False,0,0.0
14.066030904650688,95.85225677490234,-50.12058639526367,0.0020657347049564123,-130.3940887451172,-0.0036951322108507156,0.054140277206897736,-5.042531490325928,-5.66407585144043,-1.220703097715159e-06,-0.9485340118408203,-0.7211208343505859,-3.5476681659929454e-05,-0.2078040987253189,-0.09444142132997513,-9.102145195007324,27.30045920676313,0.75,-0.04870709031820297,0.0,1,-1,10,False,0,0.0
14.116030905395746,95.59884643554688,-50.40769958496094,0.0020272445399314165,-130.804443359375,0.002861849032342434,0.04661090672016144,-5.150493144989014,-5.740361213684082,2.7179717108083423e-06,-2.1592330932617188,-1.5257072448730469,7.877350435592234e-05,-0.17701846361160278,0.0239361934363842,-7.791557312011719,27.76422286760438,0.7100275754928589,-0.04240800440311432,0.0,1,-1,10,False,0,0.0
14.166030906140804,95.3404312133789,-50.69807434082031,0.00199127197265625,-131.15069580078125,0.00898852851241827,0.040482938289642334,-5.231007099151611,-5.801414489746094,7.343292054429185e-07,-1.6102790832519531,-1.2210655212402344,-3.967285010730848e-05,-0.14950397610664368,-0.025514129549264908,-6.495065212249756,28.12147214812224,0.2467411607503891,-0.036009956151247025,0.0,1,-1,10,False,0,0.0
14.216030906885862,95.07537841796875,-50.98756408691406,0.001976661616936326,-131.6621856689453,0.01149520743638277,0.059695083647966385,-5.42545747756958,-5.6882805824279785,-8.583068478174027e-08,-3.889007568359375,2.2626781463623047,-1.6403197150793858e-05,0.4380103647708893,0.5064735412597656,-13.647767066955566,28.298868135253105,0.0,-0.13600996136665344,0.11037702113389969,1,-1,10,False,0,0.0
14.26603090763092,94.80594635009766,-51.27161407470703,0.0019938659388571978,-132.36334228515625,0.008558226749300957,0.07147277146577835,-5.454201698303223,-5.579455375671387,-2.231597818536102e-06,-0.5748844146728516,2.176504135131836,-4.291534423828125e-05,0.12077275663614273,-0.02579174004495144,-14.098917007446289,28.08891515127162,0.0,-0.09625961631536484,0.28791162371635437,1,-1,10,False,0,0.0
14.316030908375978,94.53663635253906,-51.55145263671875,0.0020243071485310793,-132.98361206054688,0.003339962335303426,0.06360284984111786,-5.4354448318481445,-5.520885944366455,1.363754222438729e-06,0.3751373291015625,1.1713886260986328,7.190704491222277e-05,-0.03756164386868477,-0.1814870983362198,-11.588418006896973,27.891112885913582,0.0,-0.05950634926557541,0.07828938215970993,1,-1,10,False,0,0.0
14.366030909121037,94.26908111572266,-51.82703399658203,0.0020585632883012295,-133.4712677001953,-0.0024725282564759254,0.05247366428375244,-5.369712829589844,-5.43601655960083,3.376007043698337e-06,1.3146400451660156,1.6973876953125,4.024506051791832e-05,-0.05297267064452171,-0.2414644956588745,-8.802865982055664,27.507414112099266,0.11911620944738388,-0.045699592679739,0.0,1,-1,10,False,0,0.0
14.416030909866095,94.00325012207031,-52.098388671875,0.0020858764182776213,-133.8655548095703,-0.00717169838026166,0.04458162933588028,-5.341798782348633,-5.3665876388549805,3.7193296975601697e-07,0.5582809448242188,1.3885784149169922,-6.008148193359375e-05,-0.025518499314785004,-0.1235789805650711,-7.453914642333984,27.259174591892886,0.5024101734161377,-0.040159888565540314,0.0,1,-1,10,False,0,0.0
14.466030910611153,93.73664093017578,-52.36292266845703,0.0021073913667351007,-134.38941955566406,-0.010771207511425018,0.06067690998315811,-5.413117408752441,-5.163265705108643,-2.4700163976376643e-06,-1.4263725280761719,4.066438674926758,-5.683898780262098e-05,0.3935888707637787,0.30520400404930115,-13.11453628540039,26.930587453294567,0.75,-0.14015989005565643,0.0,1,-1,10,False,0,0.0
14.51603091135621,93.46632385253906,-52.621219635009766,0.0021070861257612705,-135.09820556640625,-0.010737056843936443,0.07315827161073685,-5.503957271575928,-5.079333305358887,-1.1730194273695815e-06,-1.8167972564697266,1.6786479949951172,2.5939938495866954e-05,0.09920985251665115,0.1654178947210312,-14.742122650146484,26.962335122656715,0.75,-0.10088858753442764,0.0,1,-1,10,False,0,0.0
14.566030912101269,93.1929931640625,-52.878231048583984,0.0020870971493422985,-135.7314453125,-0.007356113288551569,0.06566047668457031,-5.53821325302124,-5.0905561447143555,1.430511474609375e-06,-0.68511962890625,-0.224456787109375,5.207061622058973e-05,-0.20547066628932953,-0.09477761387825012,-11.634833335876465,27.080416539700213,0.75,-0.06405720859766006,0.0,1,-1,10,False,0,0.0
14.616030912846327,92.91544342041016,-53.13676071166992,0.002051658695563674,-136.2384490966797,-0.00131139624863863,0.05513459071516991,-5.635982036590576,-5.149560451507568,1.926422100950731e-06,-1.9553756713867188,-1.1800861358642578,9.91821252682712e-06,-0.21195344626903534,-0.0012562877964228392,-9.433391571044922,27.483416309333894,0.75,-0.049288276582956314,0.0,1,-1,10,False,0,0.0
14.666030913591385,92.63285827636719,-53.39766311645508,0.00201416015625,-136.65306091308594,0.005081660579890013,0.04695815220475197,-5.719760417938232,-5.19961404800415,-7.05719003235572e-07,-1.675567626953125,-1.0010719299316406,-5.264282299322076e-05,-0.1827135682106018,-0.023102596402168274,-7.732088565826416,27.827707873792434,0.5275244116783142,-0.04272755980491638,0.0,1,-1,10,False,0,0.0
14.716030914336443,92.34271240234375,-53.65757369995117,0.001987304538488388,-137.22439575195312,0.009685208089649677,0.06581564247608185,-5.939507484436035,-5.091289043426514,-9.536742595628311e-08,-4.394941329956055,2.1665000915527344,1.2207030522404239e-05,0.4454308748245239,0.5078716278076172,-14.825967788696289,28.162718152315655,0.18396726250648499,-0.1427275538444519,0.0,1,-1,10,False,0,0.0
14.766030915081501,92.04666137695312,-53.91340255737305,0.001985168317332864,-137.96853637695312,0.010033546946942806,0.07605472207069397,-5.99491548538208,-5.019619464874268,-3.1566619327350054e-06,-1.1081600189208984,1.4333915710449219,-6.12258882028982e-05,0.05181373283267021,-0.011344529688358307,-14.812910079956055,28.14813071213449,0.0,-0.09765595942735672,0.15070264041423798,1,-1,10,False,0,0.0
14.816030915826559,91.74964904785156,-54.166404724121094,0.002003631554543972,-138.6146697998047,0.006871169898658991,0.06671181321144104,-5.98896598815918,-4.982701778411865,-1.1444091541079615e-07,0.11898994445800781,0.7383537292480469,6.0844424297101796e-05,-0.08938872069120407,-0.17573752999305725,-12.018983840942383,28.04652557508888,0.0,-0.060668036341667175,0.13626325130462646,1,-1,10,False,0,0.0
14.866030916571617,91.45423889160156,-54.415828704833984,0.0020354080479592085,-139.12127685546875,0.0014548301696777344,0.05481596291065216,-5.923093318939209,-4.910988807678223,1.4591216768167214e-06,1.317453384399414,1.4342594146728516,3.147125244140625e-05,-0.08350186049938202,-0.24383029341697693,-9.151932716369629,27.69915085558955,0.0,-0.04725019261240959,0.035046640783548355,1,-1,10,False,0,0.0
14.916030917316675,91.160888671875,-54.66116714477539,0.0020669554360210896,-139.53179931640625,-0.00394101906567812,0.04658873751759529,-5.885595798492432,-4.840272903442383,-5.340576194612368e-07,0.7499504089355469,1.4143180847167969,-3.986358569818549e-05,-0.02766355685889721,-0.1394500583410263,-7.764753341674805,27.432963687725696,0.3118487298488617,-0.04169807955622673,0.0,1,-1,10,False,0,0.0
14.966030918061733,90.86994171142578,-54.902347564697266,0.0020933912601321936,-139.87237548828125,-0.008421623148024082,0.040135595947504044,-5.824216365814209,-4.76273250579834,7.343292054429185e-07,1.2275886535644531,1.5508079528808594,2.5367735361214727e-05,-0.03933895379304886,-0.14616431295871735,-6.317185878753662,27.085094034929682,0.577601432800293,-0.03586317226290703,0.0,1,-1,10,False,0,0.0
15.016030918806791,90.57769012451172,-55.13759231567383,0.0021039198618382215,-140.36590576171875,-0.010224792174994946,0.05829710140824318,-5.935733318328857,-4.578073501586914,-5.054473604104714e-07,-2.2303390502929688,3.6931800842285156,-2.47955322265625e-05,0.5043027400970459,0.4139205515384674,-13.17282485961914,26.986001253960985,0.75,-0.13586317002773285,0.0,1,-1,10,False,0,0.0
15.06603091955185,90.28157806396484,-55.3671875,0.0020957565866410732,-141.0459747314453,-0.008790452964603901,0.0703941360116005,-5.999871730804443,-4.504828453063965,-7.534026735811494e-07,-1.2827682495117188,1.4649009704589844,-4.95910626341356e-06,0.03723420202732086,0.08537938445806503,-13.793721199035645,27.01006376708938,0.75,-0.09694340080022812,0.0,1,-1,10,False,0,0.0
15.116030920296907,89.98130798339844,-55.59634017944336,0.0020664215553551912,-141.6541748046875,-0.0038453962188214064,0.06350710242986679,-6.091814041137695,-4.539210319519043,-3.814697180359872e-08,-1.838846206665039,-0.6876373291015625,1.4305113836599048e-05,-0.18914268910884857,0.01699579693377018,-11.395166397094727,27.349252039694466,0.75,-0.0609242245554924,0.0,1,-1,10,False,0,0.0
15.166030921041965,89.67632293701172,-55.82706069946289,0.002030601492151618,-142.13864135742188,0.00226762262172997,0.05281611904501915,-6.16823148727417,-4.584222793579102,1.1730194273695815e-06,-1.5283489227294922,-0.9002494812011719,2.422332727292087e-05,-0.22916243970394135,-0.03756795451045036,-8.853137016296387,27.666691721110535,0.6613789200782776,-0.04669858515262604,0.0,1,-1,10,False,0,0.0
15.216030921787024,89.36577606201172,-56.05988693237305,0.0019949721172451973,-142.53732299804688,0.008339660242199898,0.045309025794267654,-6.28494119644165,-4.635898113250732,-9.91821252682712e-07,-2.3341941833496094,-1.0335063934326172,-4.329681542003527e-05,-0.15126697719097137,0.033456966280937195,-7.572431564331055,28.115063606239097,0.34434178471565247,-0.0406334288418293,0.0,1,-1,10,False,0,0.0
15.266030922532082,89.0494155883789,-56.290164947509766,0.001982727088034153,-143.08407592773438,0.010450189001858234,0.06278487294912338,-6.418393611907959,-4.4812750816345215,-7.820129326319147e-07,-2.669048309326172,3.0924606323242188,4.196166628389619e-06,0.42773786187171936,0.3081876039505005,-13.767341613769531,28.1808043493083,0.0,-0.14063343405723572,0.10391095280647278,1,-1,10,False,0,0.0
